<?xml version="1.0" encoding="UTF-8"?>
<kml><Folder><name>foursquare checkin history for Lauren T.</name><description>foursquare checkin history for Lauren T.</description><Placemark><name>Konditori</name><description>@<a href="https://foursquare.com/v/konditori/4d2f790a789a8cfaf64d25c6">Konditori</a></description><updated>Tue, 17 Feb 15 19:13:00 +0000</updated><published>Tue, 17 Feb 15 19:13:00 +0000</published><visibility>1</visibility><Point><extrude>1</extrude><altitudeMode>relativeToGround</altitudeMode><coordinates>-73.97983776942861,40.677190392179725</coordinates></Point></Placemark><Placemark><name>Nahm Thai Kitchen</name><description>@<a href="https://foursquare.com/v/nahm-thai-kitchen/4d55eca49e508cfafc9f069b">Nahm Thai Kitchen</a></description><updated>Mon, 16 Feb 15 17:39:42 +0000</updated><published>Mon, 16 Feb 15 17:39:42 +0000</published><visibility>1</visibility><Point><extrude>1</extrude><altitudeMode>relativeToGround</altitudeMode><coordinates>-73.98014768816418,40.67660156754364</coordinates></Point></Placemark><Placemark><name>Kos Kaffe Roasting House</name><description>@<a href="https://foursquare.com/v/kos-kaffe-roasting-house/4eda6ce8be7be28337c11ce5">Kos Kaffe Roasting House</a></description><updated>Mon, 16 Feb 15 15:23:27 +0000</updated><published>Mon, 16 Feb 15 15:23:27 +0000</published><visibility>1</visibility><Point><extrude>1</extrude><altitudeMode>relativeToGround</altitudeMode><coordinates>-73.98171449190069,40.67438922976837</coordinates></Point></Placemark><Placemark><name>BluePearl Veterinary Partners</name><description>@<a href="https://foursquare.com/v/bluepearl-veterinary-partners/4d10338ec3dc370459be3774">BluePearl Veterinary Partners</a></description><updated>Sat, 14 Feb 15 01:00:53 +0000</updated><published>Sat, 14 Feb 15 01:00:53 +0000</published><visibility>1</visibility><Point><extrude>1</extrude><altitudeMode>relativeToGround</altitudeMode><coordinates>-73.97934419411462,40.68365576349652</coordinates></Point></Placemark><Placemark><name>Gryphon's Pub (GPSCY)</name><description>@<a href="https://foursquare.com/v/gryphons-pub-gpscy/4b247416f964a520b26724e3">Gryphon's Pub (GPSCY)</a></description><updated>Fri, 13 Feb 15 01:01:54 +0000</updated><published>Fri, 13 Feb 15 01:01:54 +0000</published><visibility>1</visibility><Point><extrude>1</extrude><altitudeMode>relativeToGround</altitudeMode><coordinates>-72.9319813116537,41.30927536685653</coordinates></Point></Placemark><Placemark><name>Yale University - William L. Harkness Hall</name><description>@<a href="https://foursquare.com/v/yale-university--william-l-harkness-hall/4b5cc862f964a520ce4329e3">Yale University - William L. Harkness Hall</a></description><updated>Thu, 12 Feb 15 18:16:32 +0000</updated><published>Thu, 12 Feb 15 18:16:32 +0000</published><visibility>1</visibility><Point><extrude>1</extrude><altitudeMode>relativeToGround</altitudeMode><coordinates>-72.92724033382655,41.310691201282765</coordinates></Point></Placemark><Placemark><name>Panera</name><description>@<a href="https://foursquare.com/v/panera/51bb5cfa498ee95f1d824eff">Panera</a></description><updated>Thu, 12 Feb 15 17:51:09 +0000</updated><published>Thu, 12 Feb 15 17:51:09 +0000</published><visibility>1</visibility><Point><extrude>1</extrude><altitudeMode>relativeToGround</altitudeMode><coordinates>-72.9354591223017,41.306229019978225</coordinates></Point></Placemark><Placemark><name>Grand Central Terminal</name><description>@<a href="https://foursquare.com/v/grand-central-terminal/42829c80f964a5206a221fe3">Grand Central Terminal</a></description><updated>Thu, 12 Feb 15 11:11:36 +0000</updated><published>Thu, 12 Feb 15 11:11:36 +0000</published><visibility>1</visibility><Point><extrude>1</extrude><altitudeMode>relativeToGround</altitudeMode><coordinates>-73.97629662545195,40.75463014714832</coordinates></Point></Placemark><Placemark><name>Blueprint</name><description>@<a href="https://foursquare.com/v/blueprint/4dfd49c6813092a26e4eae3f">Blueprint</a>- Great happy hour! Love the hummus. Cocktails are well made and delicious! In love with the sazerac.</description><updated>Thu, 12 Feb 15 00:30:49 +0000</updated><published>Thu, 12 Feb 15 00:30:49 +0000</published><visibility>1</visibility><Point><extrude>1</extrude><altitudeMode>relativeToGround</altitudeMode><coordinates>-73.98228267031958,40.67407372802974</coordinates></Point></Placemark><Placemark><name>Bogota Latin Bistro</name><description>@<a href="https://foursquare.com/v/bogota-latin-bistro/45aa8486f964a52035411fe3">Bogota Latin Bistro</a></description><updated>Wed, 11 Feb 15 01:31:48 +0000</updated><published>Wed, 11 Feb 15 01:31:48 +0000</published><visibility>1</visibility><Point><extrude>1</extrude><altitudeMode>relativeToGround</altitudeMode><coordinates>-73.97936141187945,40.67837389107611</coordinates></Point></Placemark><Placemark><name>Panera</name><description>@<a href="https://foursquare.com/v/panera/51bb5cfa498ee95f1d824eff">Panera</a></description><updated>Tue, 10 Feb 15 16:43:43 +0000</updated><published>Tue, 10 Feb 15 16:43:43 +0000</published><visibility>1</visibility><Point><extrude>1</extrude><altitudeMode>relativeToGround</altitudeMode><coordinates>-72.92992805302036,41.307796257009116</coordinates></Point></Placemark><Placemark><name>Grand Central Terminal</name><description>@<a href="https://foursquare.com/v/grand-central-terminal/42829c80f964a5206a221fe3">Grand Central Terminal</a>- To New Haven!</description><updated>Tue, 10 Feb 15 11:31:26 +0000</updated><published>Tue, 10 Feb 15 11:31:26 +0000</published><visibility>1</visibility><Point><extrude>1</extrude><altitudeMode>relativeToGround</altitudeMode><coordinates>-73.94755183628169,40.793312352336514</coordinates></Point></Placemark><Placemark><name>La Villa</name><description>@<a href="https://foursquare.com/v/la-villa/44bd68b5f964a5209f351fe3">La Villa</a></description><updated>Tue, 10 Feb 15 00:02:28 +0000</updated><published>Tue, 10 Feb 15 00:02:28 +0000</published><visibility>1</visibility><Point><extrude>1</extrude><altitudeMode>relativeToGround</altitudeMode><coordinates>-73.98183501473599,40.67435802477785</coordinates></Point></Placemark><Placemark><name>Newark Liberty International Airport (EWR)</name><description>@<a href="https://foursquare.com/v/newark-liberty-international-airport-ewr/4459d2f1f964a520d7321fe3">Newark Liberty International Airport (EWR)</a></description><updated>Mon, 09 Feb 15 16:31:25 +0000</updated><published>Mon, 09 Feb 15 16:31:25 +0000</published><visibility>1</visibility><Point><extrude>1</extrude><altitudeMode>relativeToGround</altitudeMode><coordinates>-74.17710775676886,40.69540914232493</coordinates></Point></Placemark><Placemark><name>Lihue Airport (LIH)</name><description>@<a href="https://foursquare.com/v/lihue-airport-lih/4bbc2610e436ef3bcf485664">Lihue Airport (LIH)</a></description><updated>Mon, 09 Feb 15 01:54:27 +0000</updated><published>Mon, 09 Feb 15 01:54:27 +0000</published><visibility>1</visibility><Point><extrude>1</extrude><altitudeMode>relativeToGround</altitudeMode><coordinates>-159.34889027814617,21.977989324904694</coordinates></Point></Placemark><Placemark><name>Kauai Lagoons Golf Club</name><description>@<a href="https://foursquare.com/v/kauai-lagoons-golf-club/4c2f729c213c2d7f35d8305d">Kauai Lagoons Golf Club</a></description><updated>Fri, 06 Feb 15 21:21:00 +0000</updated><published>Fri, 06 Feb 15 21:21:00 +0000</published><visibility>1</visibility><Point><extrude>1</extrude><altitudeMode>relativeToGround</altitudeMode><coordinates>-159.34634697613194,21.962251538361027</coordinates></Point></Placemark><Placemark><name>Hanalei Dolphin Restaurant</name><description>@<a href="https://foursquare.com/v/hanalei-dolphin-restaurant/4b15ef5df964a520d4b523e3">Hanalei Dolphin Restaurant</a></description><updated>Wed, 04 Feb 15 07:17:36 +0000</updated><published>Wed, 04 Feb 15 07:17:36 +0000</published><visibility>1</visibility><Point><extrude>1</extrude><altitudeMode>relativeToGround</altitudeMode><coordinates>-159.5214366862283,22.21598135057542</coordinates></Point></Placemark><Placemark><name>The St. Regis Princeville Resort</name><description>@<a href="https://foursquare.com/v/the-st-regis-princeville-resort/4bc3423adce4eee1a884719d">The St. Regis Princeville Resort</a></description><updated>Wed, 04 Feb 15 05:00:39 +0000</updated><published>Wed, 04 Feb 15 05:00:39 +0000</published><visibility>1</visibility><Point><extrude>1</extrude><altitudeMode>relativeToGround</altitudeMode><coordinates>-159.50730817755786,22.212945346246375</coordinates></Point></Placemark><Placemark><name>Newark Liberty International Airport (EWR)</name><description>@<a href="https://foursquare.com/v/newark-liberty-international-airport-ewr/4459d2f1f964a520d7321fe3">Newark Liberty International Airport (EWR)</a></description><updated>Mon, 02 Feb 15 13:54:57 +0000</updated><published>Mon, 02 Feb 15 13:54:57 +0000</published><visibility>1</visibility><Point><extrude>1</extrude><altitudeMode>relativeToGround</altitudeMode><coordinates>-74.18079993028493,40.700550522099576</coordinates></Point></Placemark><Placemark><name>Nunu Chocolates Cafe &amp; Tap Room</name><description>@<a href="https://foursquare.com/v/nunu-chocolates-cafe--tap-room/5463806a498e24d7adaa24bd">Nunu Chocolates Cafe &amp; Tap Room</a>- One stop shop for growlers, chocolate and blue bottle coffee!</description><updated>Sun, 01 Feb 15 20:17:01 +0000</updated><published>Sun, 01 Feb 15 20:17:01 +0000</published><visibility>1</visibility><Point><extrude>1</extrude><altitudeMode>relativeToGround</altitudeMode><coordinates>-73.98228267031958,40.67407372802974</coordinates></Point></Placemark><Placemark><name>Sweetgreen</name><description>@<a href="https://foursquare.com/v/sweetgreen/548c7da0498ea6aa0e8e5a1d">Sweetgreen</a></description><updated>Sat, 31 Jan 15 17:21:24 +0000</updated><published>Sat, 31 Jan 15 17:21:24 +0000</published><visibility>1</visibility><Point><extrude>1</extrude><altitudeMode>relativeToGround</altitudeMode><coordinates>-73.95915243537874,40.716036021109</coordinates></Point></Placemark><Placemark><name>L'isola</name><description>@<a href="https://foursquare.com/v/lisola/505b7e1be4b05d79617ac03b">L'isola</a>- Neighborhood gem with great pizza (pizza purgatorio if you like spicy!) &amp; well-priced wine. Also the Caesar &amp; tiramisu are great!</description><updated>Sat, 31 Jan 15 01:20:26 +0000</updated><published>Sat, 31 Jan 15 01:20:26 +0000</published><visibility>1</visibility><Point><extrude>1</extrude><altitudeMode>relativeToGround</altitudeMode><coordinates>-73.96156316019737,40.71850738629108</coordinates></Point></Placemark><Placemark><name>Crossroads Trading Company</name><description>@<a href="https://foursquare.com/v/crossroads-trading-company/4db9a5285da3b5fa68d9b44d">Crossroads Trading Company</a></description><updated>Fri, 30 Jan 15 21:36:45 +0000</updated><published>Fri, 30 Jan 15 21:36:45 +0000</published><visibility>1</visibility><Point><extrude>1</extrude><altitudeMode>relativeToGround</altitudeMode><coordinates>-73.9582914549305,40.716343231989484</coordinates></Point></Placemark><Placemark><name>Juice Generation</name><description>@<a href="https://foursquare.com/v/juice-generation/53d298af498e5d7ed6f5ffd0">Juice Generation</a></description><updated>Fri, 30 Jan 15 16:00:57 +0000</updated><published>Fri, 30 Jan 15 16:00:57 +0000</published><visibility>1</visibility><Point><extrude>1</extrude><altitudeMode>relativeToGround</altitudeMode><coordinates>-73.95957718431835,40.71803684561569</coordinates></Point></Placemark><Placemark><name>Café de La Esquina</name><description>@<a href="https://foursquare.com/v/caf%C3%A9-de-la-esquina/4e302cb1c65b80dfd84807cc">Café de La Esquina</a></description><updated>Fri, 30 Jan 15 02:24:50 +0000</updated><published>Fri, 30 Jan 15 02:24:50 +0000</published><visibility>1</visibility><Point><extrude>1</extrude><altitudeMode>relativeToGround</altitudeMode><coordinates>-73.96284886778287,40.71703929943484</coordinates></Point></Placemark></Folder></kml>  
  